{
"type": "FeatureCollection",
"name": "baum_morphometry",
"crs": { "type": "name", "properties": { "name": "urn:ogc:def:crs:OGC:1.3:CRS84" } },
"features": [
{ "type": "Feature", "properties": { "name": "Agiou Orous Bay", "lat": 40.21, "lon": 23.981, "geomorphotype": "Rocky Bay" }, "geometry": { "type": "Point", "coordinates": [ 23.981, 40.21 ] } },
{ "type": "Feature", "properties": { "name": "Akaroa Harbour", "lat": -43.787, "lon": 172.93, "geomorphotype": "LSE" }, "geometry": { "type": "Point", "coordinates": [ 172.93, -43.787 ] } },
{ "type": "Feature", "properties": { "name": "Albay Gulf", "lat": 13.172, "lon": 123.816, "geomorphotype": "LSE" }, "geometry": { "type": "Point", "coordinates": [ 123.816, 13.172 ] } },
{ "type": "Feature", "properties": { "name": "All Saints Bay", "lat": 31.785, "lon": -116.676, "geomorphotype": "Sandy Bay" }, "geometry": { "type": "Point", "coordinates": [ -116.676, 31.785 ] } },
{ "type": "Feature", "properties": { "name": "Amur Bay", "lat": 43.091, "lon": 131.736, "geomorphotype": "Rocky Bay" }, "geometry": { "type": "Point", "coordinates": [ 131.736, 43.091 ] } },
{ "type": "Feature", "properties": { "name": "Ao Ban Don ", "lat": 9.293, "lon": 99.268, "geomorphotype": "Sandy Bay" }, "geometry": { "type": "Point", "coordinates": [ 99.268, 9.293 ] } },
{ "type": "Feature", "properties": { "name": "Ao Chumphon ", "lat": 10.329, "lon": 99.188, "geomorphotype": "Sandy Bay" }, "geometry": { "type": "Point", "coordinates": [ 99.188, 10.329 ] } },
{ "type": "Feature", "properties": { "name": "Ao Pak Phanang ", "lat": 8.464, "lon": 100.122, "geomorphotype": "Barrier Estuary" }, "geometry": { "type": "Point", "coordinates": [ 100.122, 8.464 ] } },
{ "type": "Feature", "properties": { "name": "Aotea Harbour", "lat": -37.98, "lon": 174.848, "geomorphotype": "Barrier Estuary" }, "geometry": { "type": "Point", "coordinates": [ 174.848, -37.98 ] } },
{ "type": "Feature", "properties": { "name": "Arcachon Bay", "lat": 44.703, "lon": -1.138, "geomorphotype": "Barrier Estuary" }, "geometry": { "type": "Point", "coordinates": [ -1.138, 44.703 ] } },
{ "type": "Feature", "properties": { "name": "Arnhem Bay", "lat": -12.279, "lon": 136.155, "geomorphotype": "Barrier Estuary" }, "geometry": { "type": "Point", "coordinates": [ 136.155, -12.279 ] } },
{ "type": "Feature", "properties": { "name": "Asan-man Bay", "lat": 37.083, "lon": 126.645, "geomorphotype": "Rocky Bay" }, "geometry": { "type": "Point", "coordinates": [ 126.645, 37.083 ] } },
{ "type": "Feature", "properties": { "name": "Awarua Bay", "lat": -46.569, "lon": 168.338, "geomorphotype": "Barrier Estuary" }, "geometry": { "type": "Point", "coordinates": [ 168.338, -46.569 ] } },
{ "type": "Feature", "properties": { "name": "Bahia de Muertos", "lat": 8.269, "lon": -82.259, "geomorphotype": "LSE" }, "geometry": { "type": "Point", "coordinates": [ -82.259, 8.269 ] } },
{ "type": "Feature", "properties": { "name": "Banderas Bay", "lat": 20.615, "lon": -105.415, "geomorphotype": "Rocky Bay" }, "geometry": { "type": "Point", "coordinates": [ -105.415, 20.615 ] } },
{ "type": "Feature", "properties": { "name": "Batemans Bay", "lat": -35.739, "lon": 150.236, "geomorphotype": "Rocky Bay" }, "geometry": { "type": "Point", "coordinates": [ 150.236, -35.739 ] } },
{ "type": "Feature", "properties": { "name": "Bay of Amatique", "lat": 15.97, "lon": -88.706, "geomorphotype": "Barrier Estuary" }, "geometry": { "type": "Point", "coordinates": [ -88.706, 15.97 ] } },
{ "type": "Feature", "properties": { "name": "Bay of Brest", "lat": 48.341, "lon": -4.496, "geomorphotype": "LSE" }, "geometry": { "type": "Point", "coordinates": [ -4.496, 48.341 ] } },
{ "type": "Feature", "properties": { "name": "Bay of Ilha Grande", "lat": -23.158, "lon": -44.566, "geomorphotype": "Rocky Bay" }, "geometry": { "type": "Point", "coordinates": [ -44.566, -23.158 ] } },
{ "type": "Feature", "properties": { "name": "Bay of Kotor", "lat": 42.426, "lon": 18.665, "geomorphotype": "LSE" }, "geometry": { "type": "Point", "coordinates": [ 18.665, 42.426 ] } },
{ "type": "Feature", "properties": { "name": "Bay of Malaga", "lat": 4.026, "lon": -77.278, "geomorphotype": "Barrier Estuary" }, "geometry": { "type": "Point", "coordinates": [ -77.278, 4.026 ] } },
{ "type": "Feature", "properties": { "name": "Bay of Marajó", "lat": -0.666, "lon": -48.32, "geomorphotype": "Funnelled" }, "geometry": { "type": "Point", "coordinates": [ -48.32, -0.666 ] } },
{ "type": "Feature", "properties": { "name": "Bay of Paranaguá", "lat": -25.462, "lon": -48.41, "geomorphotype": "Barrier Estuary" }, "geometry": { "type": "Point", "coordinates": [ -48.41, -25.462 ] } },
{ "type": "Feature", "properties": { "name": "Beibu Gulf", "lat": 21.371, "lon": 109.624, "geomorphotype": "Sandy Bay" }, "geometry": { "type": "Point", "coordinates": [ 109.624, 21.371 ] } },
{ "type": "Feature", "properties": { "name": "Beppu Bay", "lat": 33.313, "lon": 131.597, "geomorphotype": "Rocky Bay" }, "geometry": { "type": "Point", "coordinates": [ 131.597, 33.313 ] } },
{ "type": "Feature", "properties": { "name": "Bima Bay", "lat": -8.428, "lon": 118.697, "geomorphotype": "LSE" }, "geometry": { "type": "Point", "coordinates": [ 118.697, -8.428 ] } },
{ "type": "Feature", "properties": { "name": "Blavet Estuary", "lat": 47.719, "lon": -3.358, "geomorphotype": "LSE" }, "geometry": { "type": "Point", "coordinates": [ -3.358, 47.719 ] } },
{ "type": "Feature", "properties": { "name": "Blue Mud Bay", "lat": -13.42, "lon": 136.094, "geomorphotype": "Barrier Estuary" }, "geometry": { "type": "Point", "coordinates": [ 136.094, -13.42 ] } },
{ "type": "Feature", "properties": { "name": "Botany Bay", "lat": -33.991, "lon": 151.203, "geomorphotype": "Barrier Estuary" }, "geometry": { "type": "Point", "coordinates": [ 151.203, -33.991 ] } },
{ "type": "Feature", "properties": { "name": "Broad Sound", "lat": -22.364, "lon": 149.861, "geomorphotype": "Funnelled" }, "geometry": { "type": "Point", "coordinates": [ 149.861, -22.364 ] } },
{ "type": "Feature", "properties": { "name": "Broken Bay", "lat": -33.567, "lon": 151.321, "geomorphotype": "LSE" }, "geometry": { "type": "Point", "coordinates": [ 151.321, -33.567 ] } },
{ "type": "Feature", "properties": { "name": "Brunei Bay", "lat": 5.1, "lon": 115.227, "geomorphotype": "Barrier Estuary" }, "geometry": { "type": "Point", "coordinates": [ 115.227, 5.1 ] } },
{ "type": "Feature", "properties": { "name": "Bruni Bay", "lat": 5.002, "lon": 115.384, "geomorphotype": "Sandy Bay" }, "geometry": { "type": "Point", "coordinates": [ 115.384, 5.002 ] } },
{ "type": "Feature", "properties": { "name": "Butan Bay", "lat": 9.085, "lon": 125.393, "geomorphotype": "Rocky Bay" }, "geometry": { "type": "Point", "coordinates": [ 125.393, 9.085 ] } },
{ "type": "Feature", "properties": { "name": "Cam Ranh Bay", "lat": 11.868, "lon": 109.148, "geomorphotype": "Barrier Estuary" }, "geometry": { "type": "Point", "coordinates": [ 109.148, 11.868 ] } },
{ "type": "Feature", "properties": { "name": "Cambridge Gulf", "lat": -14.868, "lon": 128.244, "geomorphotype": "Sandy Bay" }, "geometry": { "type": "Point", "coordinates": [ 128.244, -14.868 ] } },
{ "type": "Feature", "properties": { "name": "Cariaco Gulf", "lat": 10.514, "lon": -64.013, "geomorphotype": "LSE" }, "geometry": { "type": "Point", "coordinates": [ -64.013, 10.514 ] } },
{ "type": "Feature", "properties": { "name": "Chabahar Bay", "lat": 25.363, "lon": 60.506, "geomorphotype": "Barrier Estuary" }, "geometry": { "type": "Point", "coordinates": [ 60.506, 25.363 ] } },
{ "type": "Feature", "properties": { "name": "Chhak Kampong Som", "lat": 10.889, "lon": 103.538, "geomorphotype": "Barrier Estuary" }, "geometry": { "type": "Point", "coordinates": [ 103.538, 10.889 ] } },
{ "type": "Feature", "properties": { "name": "Chinhae-man", "lat": 35.013, "lon": 128.558, "geomorphotype": "LSE" }, "geometry": { "type": "Point", "coordinates": [ 128.558, 35.013 ] } },
{ "type": "Feature", "properties": { "name": "Chiriqui Lagoon", "lat": 9.057, "lon": -82.073, "geomorphotype": "LSE" }, "geometry": { "type": "Point", "coordinates": [ -82.073, 9.057 ] } },
{ "type": "Feature", "properties": { "name": "Cleveland Bay", "lat": -19.226, "lon": 146.883, "geomorphotype": "Sandy Bay" }, "geometry": { "type": "Point", "coordinates": [ 146.883, -19.226 ] } },
{ "type": "Feature", "properties": { "name": "Cobscook Bay", "lat": 44.898, "lon": -67.089, "geomorphotype": "LSE" }, "geometry": { "type": "Point", "coordinates": [ -67.089, 44.898 ] } },
{ "type": "Feature", "properties": { "name": "Collingwood Bay", "lat": -9.403, "lon": 149.325, "geomorphotype": "Sandy Bay" }, "geometry": { "type": "Point", "coordinates": [ 149.325, -9.403 ] } },
{ "type": "Feature", "properties": { "name": "Columbia River Estuary", "lat": 46.216, "lon": -123.844, "geomorphotype": "Barrier Estuary" }, "geometry": { "type": "Point", "coordinates": [ -123.844, 46.216 ] } },
{ "type": "Feature", "properties": { "name": "Conception Bay", "lat": 26.685, "lon": -111.82, "geomorphotype": "LSE" }, "geometry": { "type": "Point", "coordinates": [ -111.82, 26.685 ] } },
{ "type": "Feature", "properties": { "name": "Conducia Bay", "lat": -14.906, "lon": 40.719, "geomorphotype": "Sandy Bay" }, "geometry": { "type": "Point", "coordinates": [ 40.719, -14.906 ] } },
{ "type": "Feature", "properties": { "name": "Congo River Estuary", "lat": -6.068, "lon": 12.396, "geomorphotype": "Sandy Bay" }, "geometry": { "type": "Point", "coordinates": [ 12.396, -6.068 ] } },
{ "type": "Feature", "properties": { "name": "Cork Harbour", "lat": 51.822, "lon": -8.276, "geomorphotype": "LSE" }, "geometry": { "type": "Point", "coordinates": [ -8.276, 51.822 ] } },
{ "type": "Feature", "properties": { "name": "Corner Inlet", "lat": -38.773, "lon": 146.338, "geomorphotype": "Barrier Estuary" }, "geometry": { "type": "Point", "coordinates": [ 146.338, -38.773 ] } },
{ "type": "Feature", "properties": { "name": "Couesnon Estuary", "lat": 48.663, "lon": -1.497, "geomorphotype": "Funnelled" }, "geometry": { "type": "Point", "coordinates": [ -1.497, 48.663 ] } },
{ "type": "Feature", "properties": { "name": "Cross River Delta", "lat": 4.645, "lon": 8.403, "geomorphotype": "Barrier Estuary" }, "geometry": { "type": "Point", "coordinates": [ 8.403, 4.645 ] } },
{ "type": "Feature", "properties": { "name": "Dakhla Bay", "lat": 23.782, "lon": -15.811, "geomorphotype": "Rocky Bay" }, "geometry": { "type": "Point", "coordinates": [ -15.811, 23.782 ] } },
{ "type": "Feature", "properties": { "name": "Dartmouth", "lat": 50.338, "lon": -3.56, "geomorphotype": "Funnelled" }, "geometry": { "type": "Point", "coordinates": [ -3.56, 50.338 ] } },
{ "type": "Feature", "properties": { "name": "Darvel Bay", "lat": 4.838, "lon": 118.479, "geomorphotype": "Sandy Bay" }, "geometry": { "type": "Point", "coordinates": [ 118.479, 4.838 ] } },
{ "type": "Feature", "properties": { "name": "Daya Bay", "lat": 22.693, "lon": 114.667, "geomorphotype": "LSE" }, "geometry": { "type": "Point", "coordinates": [ 114.667, 22.693 ] } },
{ "type": "Feature", "properties": { "name": "Dee Estuary", "lat": 53.321, "lon": -3.196, "geomorphotype": "Rocky Bay" }, "geometry": { "type": "Point", "coordinates": [ -3.196, 53.321 ] } },
{ "type": "Feature", "properties": { "name": "Delaware Bay", "lat": 39.062, "lon": -75.184, "geomorphotype": "Barrier Estuary" }, "geometry": { "type": "Point", "coordinates": [ -75.184, 39.062 ] } },
{ "type": "Feature", "properties": { "name": "Disaster Bay", "lat": -37.276, "lon": 149.981, "geomorphotype": "Rocky Bay" }, "geometry": { "type": "Point", "coordinates": [ 149.981, -37.276 ] } },
{ "type": "Feature", "properties": { "name": "Dongshan Bay", "lat": 23.84, "lon": 117.533, "geomorphotype": "LSE" }, "geometry": { "type": "Point", "coordinates": [ 117.533, 23.84 ] } },
{ "type": "Feature", "properties": { "name": "Doubtless Bay", "lat": -34.925, "lon": 173.447, "geomorphotype": "Sandy Bay" }, "geometry": { "type": "Point", "coordinates": [ 173.447, -34.925 ] } },
{ "type": "Feature", "properties": { "name": "Duddon Estuary", "lat": 54.217, "lon": -3.219, "geomorphotype": "Rocky Bay" }, "geometry": { "type": "Point", "coordinates": [ -3.219, 54.217 ] } },
{ "type": "Feature", "properties": { "name": "Dumankilas Bay", "lat": 7.63, "lon": 123.098, "geomorphotype": "LSE" }, "geometry": { "type": "Point", "coordinates": [ 123.098, 7.63 ] } },
{ "type": "Feature", "properties": { "name": "Dyfi in Gwynedd Estuary", "lat": 52.54, "lon": -4.011, "geomorphotype": "LSE" }, "geometry": { "type": "Point", "coordinates": [ -4.011, 52.54 ] } },
{ "type": "Feature", "properties": { "name": "Dyke Ackland Bay", "lat": -9.031, "lon": 148.687, "geomorphotype": "Sandy Bay" }, "geometry": { "type": "Point", "coordinates": [ 148.687, -9.031 ] } },
{ "type": "Feature", "properties": { "name": "East Boyd Bay", "lat": -37.083, "lon": 149.931, "geomorphotype": "Rocky Bay" }, "geometry": { "type": "Point", "coordinates": [ 149.931, -37.083 ] } },
{ "type": "Feature", "properties": { "name": "Elefsinas Gulf", "lat": 38.02, "lon": 23.532, "geomorphotype": "LSE" }, "geometry": { "type": "Point", "coordinates": [ 23.532, 38.02 ] } },
{ "type": "Feature", "properties": { "name": "Elpaputih Bay", "lat": -3.245, "lon": 128.919, "geomorphotype": "Rocky Bay" }, "geometry": { "type": "Point", "coordinates": [ 128.919, -3.245 ] } },
{ "type": "Feature", "properties": { "name": "Estero Bay", "lat": 35.378, "lon": -120.887, "geomorphotype": "Rocky Bay" }, "geometry": { "type": "Point", "coordinates": [ -120.887, 35.378 ] } },
{ "type": "Feature", "properties": { "name": "Exmouth Gulf", "lat": -22.163, "lon": 114.287, "geomorphotype": "Sandy Bay" }, "geometry": { "type": "Point", "coordinates": [ 114.287, -22.163 ] } },
{ "type": "Feature", "properties": { "name": "False Bay", "lat": -34.19, "lon": 18.648, "geomorphotype": "Rocky Bay" }, "geometry": { "type": "Point", "coordinates": [ 18.648, -34.19 ] } },
{ "type": "Feature", "properties": { "name": "Fernao Veloso Bay", "lat": -14.392, "lon": 40.715, "geomorphotype": "Barrier Estuary" }, "geometry": { "type": "Point", "coordinates": [ 40.715, -14.392 ] } },
{ "type": "Feature", "properties": { "name": "Fethiye Harbour", "lat": 36.651, "lon": 28.979, "geomorphotype": "Rocky Bay" }, "geometry": { "type": "Point", "coordinates": [ 28.979, 36.651 ] } },
{ "type": "Feature", "properties": { "name": "Firth of Fourth", "lat": 56.127, "lon": -2.866, "geomorphotype": "LSE" }, "geometry": { "type": "Point", "coordinates": [ -2.866, 56.127 ] } },
{ "type": "Feature", "properties": { "name": "Firth of Tay", "lat": 56.456, "lon": -2.824, "geomorphotype": "LSE" }, "geometry": { "type": "Point", "coordinates": [ -2.824, 56.456 ] } },
{ "type": "Feature", "properties": { "name": "Funding Ocean", "lat": 26.652, "lon": 119.773, "geomorphotype": "LSE" }, "geometry": { "type": "Point", "coordinates": [ 119.773, 26.652 ] } },
{ "type": "Feature", "properties": { "name": "Funka Bay", "lat": 42.36, "lon": 140.537, "geomorphotype": "Barrier Estuary" }, "geometry": { "type": "Point", "coordinates": [ 140.537, 42.36 ] } },
{ "type": "Feature", "properties": { "name": "Galveston Bay", "lat": 29.585, "lon": -94.868, "geomorphotype": "Barrier Estuary" }, "geometry": { "type": "Point", "coordinates": [ -94.868, 29.585 ] } },
{ "type": "Feature", "properties": { "name": "Galway Bay", "lat": 53.186, "lon": -9.288, "geomorphotype": "Rocky Bay" }, "geometry": { "type": "Point", "coordinates": [ -9.288, 53.186 ] } },
{ "type": "Feature", "properties": { "name": "Gambia Estuary", "lat": 13.526, "lon": -16.592, "geomorphotype": "Sandy Bay" }, "geometry": { "type": "Point", "coordinates": [ -16.592, 13.526 ] } },
{ "type": "Feature", "properties": { "name": "Geras Gulf", "lat": 39.079, "lon": 26.492, "geomorphotype": "LSE" }, "geometry": { "type": "Point", "coordinates": [ 26.492, 39.079 ] } },
{ "type": "Feature", "properties": { "name": "Ghubbat Hashish Bay", "lat": 20.536, "lon": 58.173, "geomorphotype": "Sandy Bay" }, "geometry": { "type": "Point", "coordinates": [ 58.173, 20.536 ] } },
{ "type": "Feature", "properties": { "name": "Gingoog Bay", "lat": 8.926, "lon": 125.103, "geomorphotype": "Rocky Bay" }, "geometry": { "type": "Point", "coordinates": [ 125.103, 8.926 ] } },
{ "type": "Feature", "properties": { "name": "Golden Bay ", "lat": -40.716, "lon": 172.835, "geomorphotype": "Rocky Bay" }, "geometry": { "type": "Point", "coordinates": [ 172.835, -40.716 ] } },
{ "type": "Feature", "properties": { "name": "Goodenough Bay", "lat": -9.916, "lon": 149.899, "geomorphotype": "Rocky Bay" }, "geometry": { "type": "Point", "coordinates": [ 149.899, -9.916 ] } },
{ "type": "Feature", "properties": { "name": "Grays Harbour", "lat": 46.936, "lon": -124.053, "geomorphotype": "Barrier Estuary" }, "geometry": { "type": "Point", "coordinates": [ -124.053, 46.936 ] } },
{ "type": "Feature", "properties": { "name": "Guanabara Bay", "lat": -22.793, "lon": -43.14, "geomorphotype": "LSE" }, "geometry": { "type": "Point", "coordinates": [ -43.14, -22.793 ] } },
{ "type": "Feature", "properties": { "name": "Gulf of Arauco", "lat": -37.133, "lon": -73.318, "geomorphotype": "Rocky Bay" }, "geometry": { "type": "Point", "coordinates": [ -73.318, -37.133 ] } },
{ "type": "Feature", "properties": { "name": "Gulf of Boughrara", "lat": 33.623, "lon": 10.865, "geomorphotype": "Barrier Estuary" }, "geometry": { "type": "Point", "coordinates": [ 10.865, 33.623 ] } },
{ "type": "Feature", "properties": { "name": "Gulf of Dulce", "lat": 8.565, "lon": -83.233, "geomorphotype": "Rocky Bay" }, "geometry": { "type": "Point", "coordinates": [ -83.233, 8.565 ] } },
{ "type": "Feature", "properties": { "name": "Gulf of Fonseca", "lat": 13.145, "lon": -87.65, "geomorphotype": "Barrier Estuary" }, "geometry": { "type": "Point", "coordinates": [ -87.65, 13.145 ] } },
{ "type": "Feature", "properties": { "name": "Gulf of Guayaquil", "lat": -3.017, "lon": -80.021, "geomorphotype": "Rocky Bay" }, "geometry": { "type": "Point", "coordinates": [ -80.021, -3.017 ] } },
{ "type": "Feature", "properties": { "name": "Gulf of Iskenderun", "lat": 36.695, "lon": 35.932, "geomorphotype": "Sandy Bay" }, "geometry": { "type": "Point", "coordinates": [ 35.932, 36.695 ] } },
{ "type": "Feature", "properties": { "name": "Gulf of Khambhat", "lat": 21.652, "lon": 72.422, "geomorphotype": "Sandy Bay" }, "geometry": { "type": "Point", "coordinates": [ 72.422, 21.652 ] } },
{ "type": "Feature", "properties": { "name": "Gulf of Kutch", "lat": 22.612, "lon": 69.657, "geomorphotype": "Sandy Bay" }, "geometry": { "type": "Point", "coordinates": [ 69.657, 22.612 ] } },
{ "type": "Feature", "properties": { "name": "Gulf of Martaban", "lat": 16.934, "lon": 96.992, "geomorphotype": "Sandy Bay" }, "geometry": { "type": "Point", "coordinates": [ 96.992, 16.934 ] } },
{ "type": "Feature", "properties": { "name": "Gulf of Morbihan", "lat": 47.575, "lon": -2.828, "geomorphotype": "LSE" }, "geometry": { "type": "Point", "coordinates": [ -2.828, 47.575 ] } },
{ "type": "Feature", "properties": { "name": "Gulf of Nicoya", "lat": 9.888, "lon": -84.823, "geomorphotype": "Funnelled" }, "geometry": { "type": "Point", "coordinates": [ -84.823, 9.888 ] } },
{ "type": "Feature", "properties": { "name": "Gulf of Tumaco", "lat": 1.875, "lon": -78.639, "geomorphotype": "Sandy Bay" }, "geometry": { "type": "Point", "coordinates": [ -78.639, 1.875 ] } },
{ "type": "Feature", "properties": { "name": "Gwadar West Bay", "lat": 25.164, "lon": 62.165, "geomorphotype": "Barrier Estuary" }, "geometry": { "type": "Point", "coordinates": [ 62.165, 25.164 ] } },
{ "type": "Feature", "properties": { "name": "Haeju-man Bay", "lat": 37.879, "lon": 125.765, "geomorphotype": "Rocky Bay" }, "geometry": { "type": "Point", "coordinates": [ 125.765, 37.879 ] } },
{ "type": "Feature", "properties": { "name": "Hakata Bay", "lat": 33.631, "lon": 130.312, "geomorphotype": "Barrier Estuary" }, "geometry": { "type": "Point", "coordinates": [ 130.312, 33.631 ] } },
{ "type": "Feature", "properties": { "name": "Halifax Bay", "lat": -18.945, "lon": 146.479, "geomorphotype": "Sandy Bay" }, "geometry": { "type": "Point", "coordinates": [ 146.479, -18.945 ] } },
{ "type": "Feature", "properties": { "name": "Halmahera Sea", "lat": 1.221, "lon": 128.014, "geomorphotype": "LSE" }, "geometry": { "type": "Point", "coordinates": [ 128.014, 1.221 ] } },
{ "type": "Feature", "properties": { "name": "Hangzhou Bay", "lat": 30.507, "lon": 121.386, "geomorphotype": "Funnelled" }, "geometry": { "type": "Point", "coordinates": [ 121.386, 30.507 ] } },
{ "type": "Feature", "properties": { "name": "Hawke Bay", "lat": -39.311, "lon": 177.325, "geomorphotype": "Sandy Bay" }, "geometry": { "type": "Point", "coordinates": [ 177.325, -39.311 ] } },
{ "type": "Feature", "properties": { "name": "Hiechechin Bay", "lat": 22.763, "lon": 115.673, "geomorphotype": "Rocky Bay" }, "geometry": { "type": "Point", "coordinates": [ 115.673, 22.763 ] } },
{ "type": "Feature", "properties": { "name": "Humboldt Bay", "lat": -2.579, "lon": 140.748, "geomorphotype": "Rocky Bay" }, "geometry": { "type": "Point", "coordinates": [ 140.748, -2.579 ] } },
{ "type": "Feature", "properties": { "name": "Hurdiyo Bay", "lat": 10.488, "lon": 51.153, "geomorphotype": "Barrier Estuary" }, "geometry": { "type": "Point", "coordinates": [ 51.153, 10.488 ] } },
{ "type": "Feature", "properties": { "name": "Imari Bay", "lat": 33.338, "lon": 129.818, "geomorphotype": "Barrier Estuary" }, "geometry": { "type": "Point", "coordinates": [ 129.818, 33.338 ] } },
{ "type": "Feature", "properties": { "name": "Inhambane Bay", "lat": -23.796, "lon": 35.399, "geomorphotype": "Barrier Estuary" }, "geometry": { "type": "Point", "coordinates": [ 35.399, -23.796 ] } },
{ "type": "Feature", "properties": { "name": "Inland Sea", "lat": 24.619, "lon": 51.307, "geomorphotype": "LSE" }, "geometry": { "type": "Point", "coordinates": [ 51.307, 24.619 ] } },
{ "type": "Feature", "properties": { "name": "Ise Sea", "lat": 34.65, "lon": 136.886, "geomorphotype": "Barrier Estuary" }, "geometry": { "type": "Point", "coordinates": [ 136.886, 34.65 ] } },
{ "type": "Feature", "properties": { "name": "Jervis Bay", "lat": -35.075, "lon": 150.748, "geomorphotype": "Barrier Estuary" }, "geometry": { "type": "Point", "coordinates": [ 150.748, -35.075 ] } },
{ "type": "Feature", "properties": { "name": "Jiaozhou Wan Bay", "lat": 36.144, "lon": 120.227, "geomorphotype": "LSE" }, "geometry": { "type": "Point", "coordinates": [ 120.227, 36.144 ] } },
{ "type": "Feature", "properties": { "name": "Jinzhou Wan", "lat": 39.234, "lon": 121.376, "geomorphotype": "Rocky Bay" }, "geometry": { "type": "Point", "coordinates": [ 121.376, 39.234 ] } },
{ "type": "Feature", "properties": { "name": "Jiuzhen Harbour", "lat": 23.985, "lon": 117.728, "geomorphotype": "LSE" }, "geometry": { "type": "Point", "coordinates": [ 117.728, 23.985 ] } },
{ "type": "Feature", "properties": { "name": "Jiwani Bay", "lat": 25.1, "lon": 61.611, "geomorphotype": "Sandy Bay" }, "geometry": { "type": "Point", "coordinates": [ 61.611, 25.1 ] } },
{ "type": "Feature", "properties": { "name": "Kaboei Bay", "lat": -0.409, "lon": 130.676, "geomorphotype": "LSE" }, "geometry": { "type": "Point", "coordinates": [ 130.676, -0.409 ] } },
{ "type": "Feature", "properties": { "name": "Kaipara Harbour", "lat": -36.387, "lon": 174.208, "geomorphotype": "Barrier Estuary" }, "geometry": { "type": "Point", "coordinates": [ 174.208, -36.387 ] } },
{ "type": "Feature", "properties": { "name": "Kallonis Gulf", "lat": 39.175, "lon": 26.198, "geomorphotype": "LSE" }, "geometry": { "type": "Point", "coordinates": [ 26.198, 39.175 ] } },
{ "type": "Feature", "properties": { "name": "Kamchatskiy zaliv", "lat": 55.606, "lon": 162.205, "geomorphotype": "Rocky Bay" }, "geometry": { "type": "Point", "coordinates": [ 162.205, 55.606 ] } },
{ "type": "Feature", "properties": { "name": "Karatu Bay", "lat": 33.47, "lon": 129.998, "geomorphotype": "Rocky Bay" }, "geometry": { "type": "Point", "coordinates": [ 129.998, 33.47 ] } },
{ "type": "Feature", "properties": { "name": "Karorim-man Bay", "lat": 36.936, "lon": 126.331, "geomorphotype": "LSE" }, "geometry": { "type": "Point", "coordinates": [ 126.331, 36.936 ] } },
{ "type": "Feature", "properties": { "name": "Kawhia Harbour", "lat": -38.096, "lon": 174.832, "geomorphotype": "LSE" }, "geometry": { "type": "Point", "coordinates": [ 174.832, -38.096 ] } },
{ "type": "Feature", "properties": { "name": "Kayeli Bay", "lat": -3.317, "lon": 127.094, "geomorphotype": "LSE" }, "geometry": { "type": "Point", "coordinates": [ 127.094, -3.317 ] } },
{ "type": "Feature", "properties": { "name": "Kerikeri Inlet", "lat": -35.202, "lon": 174.009, "geomorphotype": "LSE" }, "geometry": { "type": "Point", "coordinates": [ 174.009, -35.202 ] } },
{ "type": "Feature", "properties": { "name": "King Sound", "lat": -16.84, "lon": 123.512, "geomorphotype": "Barrier Estuary" }, "geometry": { "type": "Point", "coordinates": [ 123.512, -16.84 ] } },
{ "type": "Feature", "properties": { "name": "Kirkcudbright Bay", "lat": 54.793, "lon": -4.076, "geomorphotype": "Rocky Bay" }, "geometry": { "type": "Point", "coordinates": [ -4.076, 54.793 ] } },
{ "type": "Feature", "properties": { "name": "Kronotskiy zaliv", "lat": 54.083, "lon": 160.52, "geomorphotype": "Rocky Bay" }, "geometry": { "type": "Point", "coordinates": [ 160.52, 54.083 ] } },
{ "type": "Feature", "properties": { "name": "Kumai Bay", "lat": -3.022, "lon": 111.718, "geomorphotype": "Sandy Bay" }, "geometry": { "type": "Point", "coordinates": [ 111.718, -3.022 ] } },
{ "type": "Feature", "properties": { "name": "Kumya-man", "lat": 39.245, "lon": 127.456, "geomorphotype": "LSE" }, "geometry": { "type": "Point", "coordinates": [ 127.456, 39.245 ] } },
{ "type": "Feature", "properties": { "name": "Kupang Gulf", "lat": -10.08, "lon": 123.658, "geomorphotype": "Rocky Bay" }, "geometry": { "type": "Point", "coordinates": [ 123.658, -10.08 ] } },
{ "type": "Feature", "properties": { "name": "Kuwait Bay", "lat": 29.468, "lon": 47.99, "geomorphotype": "Sandy Bay" }, "geometry": { "type": "Point", "coordinates": [ 47.99, 29.468 ] } },
{ "type": "Feature", "properties": { "name": "Labuk Bay", "lat": 6.074, "lon": 117.763, "geomorphotype": "Sandy Bay" }, "geometry": { "type": "Point", "coordinates": [ 117.763, 6.074 ] } },
{ "type": "Feature", "properties": { "name": "Lagoon of Caratasca", "lat": 15.356, "lon": -83.835, "geomorphotype": "Barrier Estuary" }, "geometry": { "type": "Point", "coordinates": [ -83.835, 15.356 ] } },
{ "type": "Feature", "properties": { "name": "Lake Illawarra ", "lat": -34.523, "lon": 150.839, "geomorphotype": "LSE" }, "geometry": { "type": "Point", "coordinates": [ 150.839, -34.523 ] } },
{ "type": "Feature", "properties": { "name": "Lake Macquarie", "lat": -33.093, "lon": 151.604, "geomorphotype": "LSE" }, "geometry": { "type": "Point", "coordinates": [ 151.604, -33.093 ] } },
{ "type": "Feature", "properties": { "name": "Lake Maracaibo", "lat": 9.998, "lon": -71.612, "geomorphotype": "Barrier Estuary" }, "geometry": { "type": "Point", "coordinates": [ -71.612, 9.998 ] } },
{ "type": "Feature", "properties": { "name": "Lamak Bay", "lat": 4.828, "lon": 118.293, "geomorphotype": "Rocky Bay" }, "geometry": { "type": "Point", "coordinates": [ 118.293, 4.828 ] } },
{ "type": "Feature", "properties": { "name": "Lampung Bay", "lat": -5.668, "lon": 105.319, "geomorphotype": "Rocky Bay" }, "geometry": { "type": "Point", "coordinates": [ 105.319, -5.668 ] } },
{ "type": "Feature", "properties": { "name": "Lianga Bay", "lat": 8.639, "lon": 126.249, "geomorphotype": "Rocky Bay" }, "geometry": { "type": "Point", "coordinates": [ 126.249, 8.639 ] } },
{ "type": "Feature", "properties": { "name": "Lingayen Gulf", "lat": 16.367, "lon": 120.208, "geomorphotype": "Rocky Bay" }, "geometry": { "type": "Point", "coordinates": [ 120.208, 16.367 ] } },
{ "type": "Feature", "properties": { "name": "Loch Ryan", "lat": 54.946, "lon": -5.033, "geomorphotype": "LSE" }, "geometry": { "type": "Point", "coordinates": [ -5.033, 54.946 ] } },
{ "type": "Feature", "properties": { "name": "Londonderry", "lat": 55.15, "lon": -7.038, "geomorphotype": "LSE" }, "geometry": { "type": "Point", "coordinates": [ -7.038, 55.15 ] } },
{ "type": "Feature", "properties": { "name": "Luoyuan Bay", "lat": 26.41, "lon": 119.71, "geomorphotype": "LSE" }, "geometry": { "type": "Point", "coordinates": [ 119.71, 26.41 ] } },
{ "type": "Feature", "properties": { "name": "Lupar Estuary", "lat": 2.147, "lon": 100.687, "geomorphotype": "Funnelled" }, "geometry": { "type": "Point", "coordinates": [ 100.687, 2.147 ] } },
{ "type": "Feature", "properties": { "name": "Macajalar Bay", "lat": 8.603, "lon": 124.66, "geomorphotype": "Rocky Bay" }, "geometry": { "type": "Point", "coordinates": [ 124.66, 8.603 ] } },
{ "type": "Feature", "properties": { "name": "Majalibit Bay", "lat": -0.292, "lon": 130.89, "geomorphotype": "LSE" }, "geometry": { "type": "Point", "coordinates": [ 130.89, -0.292 ] } },
{ "type": "Feature", "properties": { "name": "Majoli Gulf", "lat": -0.286, "lon": 130.883, "geomorphotype": "LSE" }, "geometry": { "type": "Point", "coordinates": [ 130.883, -0.286 ] } },
{ "type": "Feature", "properties": { "name": "Mangonui Inlet", "lat": -35.168, "lon": 174.025, "geomorphotype": "LSE" }, "geometry": { "type": "Point", "coordinates": [ 174.025, -35.168 ] } },
{ "type": "Feature", "properties": { "name": "Manila Bay", "lat": 14.554, "lon": 120.797, "geomorphotype": "LSE" }, "geometry": { "type": "Point", "coordinates": [ 120.797, 14.554 ] } },
{ "type": "Feature", "properties": { "name": "Manukau Harbour", "lat": -37.022, "lon": 174.689, "geomorphotype": "Barrier Estuary" }, "geometry": { "type": "Point", "coordinates": [ 174.689, -37.022 ] } },
{ "type": "Feature", "properties": { "name": "Maputo Bay", "lat": -26.048, "lon": 32.751, "geomorphotype": "Sandy Bay" }, "geometry": { "type": "Point", "coordinates": [ 32.751, -26.048 ] } },
{ "type": "Feature", "properties": { "name": "Markham Bay", "lat": -6.86, "lon": 147.085, "geomorphotype": "Sandy Bay" }, "geometry": { "type": "Point", "coordinates": [ 147.085, -6.86 ] } },
{ "type": "Feature", "properties": { "name": "Matarinao Bay", "lat": 11.233, "lon": 125.564, "geomorphotype": "LSE" }, "geometry": { "type": "Point", "coordinates": [ 125.564, 11.233 ] } },
{ "type": "Feature", "properties": { "name": "Meizhou Bay", "lat": 25.123, "lon": 118.998, "geomorphotype": "LSE" }, "geometry": { "type": "Point", "coordinates": [ 118.998, 25.123 ] } },
{ "type": "Feature", "properties": { "name": "Mejillones Bay", "lat": -23.047, "lon": -70.436, "geomorphotype": "Rocky Bay" }, "geometry": { "type": "Point", "coordinates": [ -70.436, -23.047 ] } },
{ "type": "Feature", "properties": { "name": "Melkovodnyy zaliv", "lat": 61.653, "lon": 162.769, "geomorphotype": "LSE" }, "geometry": { "type": "Point", "coordinates": [ 162.769, 61.653 ] } },
{ "type": "Feature", "properties": { "name": "Memba Bay", "lat": -14.174, "lon": 40.615, "geomorphotype": "Sandy Bay" }, "geometry": { "type": "Point", "coordinates": [ 40.615, -14.174 ] } },
{ "type": "Feature", "properties": { "name": "Messolonghi Lagoon", "lat": 38.371, "lon": 21.356, "geomorphotype": "LSE" }, "geometry": { "type": "Point", "coordinates": [ 21.356, 38.371 ] } },
{ "type": "Feature", "properties": { "name": "Miani Hor", "lat": 25.51, "lon": 66.419, "geomorphotype": "Barrier Estuary" }, "geometry": { "type": "Point", "coordinates": [ 66.419, 25.51 ] } },
{ "type": "Feature", "properties": { "name": "Milford Haven", "lat": 51.704, "lon": -5.112, "geomorphotype": "Rocky Bay" }, "geometry": { "type": "Point", "coordinates": [ -5.112, 51.704 ] } },
{ "type": "Feature", "properties": { "name": "Milne Bay", "lat": -10.374, "lon": 150.412, "geomorphotype": "Rocky Bay" }, "geometry": { "type": "Point", "coordinates": [ 150.412, -10.374 ] } },
{ "type": "Feature", "properties": { "name": "Mocambo Bay", "lat": -15.155, "lon": 40.548, "geomorphotype": "Barrier Estuary" }, "geometry": { "type": "Point", "coordinates": [ 40.548, -15.155 ] } },
{ "type": "Feature", "properties": { "name": "Monterey Bay", "lat": 36.75, "lon": -121.903, "geomorphotype": "Sandy Bay" }, "geometry": { "type": "Point", "coordinates": [ -121.903, 36.75 ] } },
{ "type": "Feature", "properties": { "name": "Montijo Bay", "lat": 7.669, "lon": -81.134, "geomorphotype": "Rocky Bay" }, "geometry": { "type": "Point", "coordinates": [ -81.134, 7.669 ] } },
{ "type": "Feature", "properties": { "name": "Morecambe Bay", "lat": 54.092, "lon": -2.976, "geomorphotype": "Rocky Bay" }, "geometry": { "type": "Point", "coordinates": [ -2.976, 54.092 ] } },
{ "type": "Feature", "properties": { "name": "Moreno Bay", "lat": -23.562, "lon": -70.47, "geomorphotype": "Rocky Bay" }, "geometry": { "type": "Point", "coordinates": [ -70.47, -23.562 ] } },
{ "type": "Feature", "properties": { "name": "Mossuril Bay", "lat": -15.019, "lon": 40.706, "geomorphotype": "Sandy Bay" }, "geometry": { "type": "Point", "coordinates": [ 40.706, -15.019 ] } },
{ "type": "Feature", "properties": { "name": "Mumbai Harbour", "lat": 18.908, "lon": 72.876, "geomorphotype": "Rocky Bay" }, "geometry": { "type": "Point", "coordinates": [ 72.876, 18.908 ] } },
{ "type": "Feature", "properties": { "name": "Mutu Bay", "lat": 41.081, "lon": 140.844, "geomorphotype": "LSE" }, "geometry": { "type": "Point", "coordinates": [ 140.844, 41.081 ] } },
{ "type": "Feature", "properties": { "name": "New Gulf", "lat": -42.721, "lon": -64.527, "geomorphotype": "LSE" }, "geometry": { "type": "Point", "coordinates": [ -64.527, -42.721 ] } },
{ "type": "Feature", "properties": { "name": "North Bay", "lat": 8.341, "lon": -78.293, "geomorphotype": "Rocky Bay" }, "geometry": { "type": "Point", "coordinates": [ -78.293, 8.341 ] } },
{ "type": "Feature", "properties": { "name": "Ojo de Libre Lagoon", "lat": 27.752, "lon": -114.195, "geomorphotype": "Barrier Estuary" }, "geometry": { "type": "Point", "coordinates": [ -114.195, 27.752 ] } },
{ "type": "Feature", "properties": { "name": "Osaka Bay", "lat": 34.412, "lon": 135.06, "geomorphotype": "Barrier Estuary" }, "geometry": { "type": "Point", "coordinates": [ 135.06, 34.412 ] } },
{ "type": "Feature", "properties": { "name": "Otaru Bay", "lat": 43.316, "lon": 141.218, "geomorphotype": "Sandy Bay" }, "geometry": { "type": "Point", "coordinates": [ 141.218, 43.316 ] } },
{ "type": "Feature", "properties": { "name": "Pagasetic Gulf", "lat": 39.218, "lon": 22.997, "geomorphotype": "LSE" }, "geometry": { "type": "Point", "coordinates": [ 22.997, 39.218 ] } },
{ "type": "Feature", "properties": { "name": "Pak Nam Palian Estuary", "lat": 7.289, "lon": 99.504, "geomorphotype": "Funnelled" }, "geometry": { "type": "Point", "coordinates": [ 99.504, 7.289 ] } },
{ "type": "Feature", "properties": { "name": "Pakchan Estuary", "lat": 10.03, "lon": 98.601, "geomorphotype": "Sandy Bay" }, "geometry": { "type": "Point", "coordinates": [ 98.601, 10.03 ] } },
{ "type": "Feature", "properties": { "name": "Parengarenga Harbour", "lat": -34.522, "lon": 172.942, "geomorphotype": "Barrier Estuary" }, "geometry": { "type": "Point", "coordinates": [ 172.942, -34.522 ] } },
{ "type": "Feature", "properties": { "name": "Passamaquoddy Bay", "lat": 45.061, "lon": -66.984, "geomorphotype": "LSE" }, "geometry": { "type": "Point", "coordinates": [ -66.984, 45.061 ] } },
{ "type": "Feature", "properties": { "name": "Paterson Inlet", "lat": -46.932, "lon": 168.089, "geomorphotype": "LSE" }, "geometry": { "type": "Point", "coordinates": [ 168.089, -46.932 ] } },
{ "type": "Feature", "properties": { "name": "Pegasus Bay", "lat": -43.343, "lon": 172.868, "geomorphotype": "Sandy Bay" }, "geometry": { "type": "Point", "coordinates": [ 172.868, -43.343 ] } },
{ "type": "Feature", "properties": { "name": "Pemba Bay", "lat": -12.946, "lon": 40.464, "geomorphotype": "LSE" }, "geometry": { "type": "Point", "coordinates": [ 40.464, -12.946 ] } },
{ "type": "Feature", "properties": { "name": "Pensacola Bay", "lat": 30.431, "lon": -87.117, "geomorphotype": "Barrier Estuary" }, "geometry": { "type": "Point", "coordinates": [ -87.117, 30.431 ] } },
{ "type": "Feature", "properties": { "name": "Perevolochnyy zaliv", "lat": 59.535, "lon": 154.225, "geomorphotype": "LSE" }, "geometry": { "type": "Point", "coordinates": [ 154.225, 59.535 ] } },
{ "type": "Feature", "properties": { "name": "Phang Nga Bay", "lat": 8.235, "lon": 98.576, "geomorphotype": "Sandy Bay" }, "geometry": { "type": "Point", "coordinates": [ 98.576, 8.235 ] } },
{ "type": "Feature", "properties": { "name": "Piru Bay", "lat": -3.127, "lon": 128.152, "geomorphotype": "Rocky Bay" }, "geometry": { "type": "Point", "coordinates": [ 128.152, -3.127 ] } },
{ "type": "Feature", "properties": { "name": "Plymouth Sound", "lat": 50.344, "lon": -4.149, "geomorphotype": "Funnelled" }, "geometry": { "type": "Point", "coordinates": [ -4.149, 50.344 ] } },
{ "type": "Feature", "properties": { "name": "Poole Harbour", "lat": 50.693, "lon": -1.996, "geomorphotype": "LSE" }, "geometry": { "type": "Point", "coordinates": [ -1.996, 50.693 ] } },
{ "type": "Feature", "properties": { "name": "Port Phillip Bay", "lat": -38.096, "lon": 144.99, "geomorphotype": "Barrier Estuary" }, "geometry": { "type": "Point", "coordinates": [ 144.99, -38.096 ] } },
{ "type": "Feature", "properties": { "name": "Princess Charlotte Bay", "lat": -14.318, "lon": 143.96, "geomorphotype": "Sandy Bay" }, "geometry": { "type": "Point", "coordinates": [ 143.96, -14.318 ] } },
{ "type": "Feature", "properties": { "name": "Pujada Bay", "lat": 6.835, "lon": 126.244, "geomorphotype": "Rocky Bay" }, "geometry": { "type": "Point", "coordinates": [ 126.244, 6.835 ] } },
{ "type": "Feature", "properties": { "name": "Pungwe Estuary", "lat": -19.896, "lon": 34.814, "geomorphotype": "Sandy Bay" }, "geometry": { "type": "Point", "coordinates": [ 34.814, -19.896 ] } },
{ "type": "Feature", "properties": { "name": "Puro Bay", "lat": -10.481, "lon": 149.963, "geomorphotype": "LSE" }, "geometry": { "type": "Point", "coordinates": [ 149.963, -10.481 ] } },
{ "type": "Feature", "properties": { "name": "Quanzhou Bay", "lat": 24.829, "lon": 118.675, "geomorphotype": "LSE" }, "geometry": { "type": "Point", "coordinates": [ 118.675, 24.829 ] } },
{ "type": "Feature", "properties": { "name": "Raglan Harbour", "lat": -37.794, "lon": 174.909, "geomorphotype": "LSE" }, "geometry": { "type": "Point", "coordinates": [ 174.909, -37.794 ] } },
{ "type": "Feature", "properties": { "name": "Rangaunu Harbour", "lat": -34.936, "lon": 173.293, "geomorphotype": "Barrier Estuary" }, "geometry": { "type": "Point", "coordinates": [ 173.293, -34.936 ] } },
{ "type": "Feature", "properties": { "name": "Rawayah Lagoon", "lat": 21.188, "lon": 37.132, "geomorphotype": "Barrier Estuary" }, "geometry": { "type": "Point", "coordinates": [ 37.132, 21.188 ] } },
{ "type": "Feature", "properties": { "name": "Ria de Arosa", "lat": 42.551, "lon": -8.894, "geomorphotype": "Rocky Bay" }, "geometry": { "type": "Point", "coordinates": [ -8.894, 42.551 ] } },
{ "type": "Feature", "properties": { "name": "Ria de Betanzos", "lat": 43.404, "lon": -8.249, "geomorphotype": "LSE" }, "geometry": { "type": "Point", "coordinates": [ -8.249, 43.404 ] } },
{ "type": "Feature", "properties": { "name": "Ria de Muros e Noia", "lat": 42.734, "lon": -9.04, "geomorphotype": "Rocky Bay" }, "geometry": { "type": "Point", "coordinates": [ -9.04, 42.734 ] } },
{ "type": "Feature", "properties": { "name": "Ria de Pontevedra", "lat": 42.364, "lon": -8.784, "geomorphotype": "Rocky Bay" }, "geometry": { "type": "Point", "coordinates": [ -8.784, 42.364 ] } },
{ "type": "Feature", "properties": { "name": "River Shannon Estuary", "lat": 52.599, "lon": -9.562, "geomorphotype": "LSE" }, "geometry": { "type": "Point", "coordinates": [ -9.562, 52.599 ] } },
{ "type": "Feature", "properties": { "name": "River Thames", "lat": 51.5, "lon": 0.726, "geomorphotype": "Rocky Bay" }, "geometry": { "type": "Point", "coordinates": [ 0.726, 51.5 ] } },
{ "type": "Feature", "properties": { "name": "Rokan Delta", "lat": 2.153, "lon": 100.692, "geomorphotype": "Sandy Bay" }, "geometry": { "type": "Point", "coordinates": [ 100.692, 2.153 ] } },
{ "type": "Feature", "properties": { "name": "Sado Estuary", "lat": 38.463, "lon": -8.768, "geomorphotype": "Barrier Estuary" }, "geometry": { "type": "Point", "coordinates": [ -8.768, 38.463 ] } },
{ "type": "Feature", "properties": { "name": "Sagami Bay", "lat": 35.205, "lon": 139.375, "geomorphotype": "Sandy Bay" }, "geometry": { "type": "Point", "coordinates": [ 139.375, 35.205 ] } },
{ "type": "Feature", "properties": { "name": "Saint Ignacio Lagoon", "lat": 26.827, "lon": -113.207, "geomorphotype": "Barrier Estuary" }, "geometry": { "type": "Point", "coordinates": [ -113.207, 26.827 ] } },
{ "type": "Feature", "properties": { "name": "Saint Vincent Gulf", "lat": -35.043, "lon": 138.073, "geomorphotype": "Sandy Bay" }, "geometry": { "type": "Point", "coordinates": [ 138.073, -35.043 ] } },
{ "type": "Feature", "properties": { "name": "Saldhana Bay", "lat": -33.049, "lon": 17.984, "geomorphotype": "LSE" }, "geometry": { "type": "Point", "coordinates": [ 17.984, -33.049 ] } },
{ "type": "Feature", "properties": { "name": "Sampit Bay", "lat": -3.093, "lon": 113.055, "geomorphotype": "Sandy Bay" }, "geometry": { "type": "Point", "coordinates": [ 113.055, -3.093 ] } },
{ "type": "Feature", "properties": { "name": "San Francisco Bay", "lat": 37.845, "lon": -122.376, "geomorphotype": "LSE" }, "geometry": { "type": "Point", "coordinates": [ -122.376, 37.845 ] } },
{ "type": "Feature", "properties": { "name": "San Jose Bay", "lat": 18.457, "lon": -88.143, "geomorphotype": "Barrier Estuary" }, "geometry": { "type": "Point", "coordinates": [ -88.143, 18.457 ] } },
{ "type": "Feature", "properties": { "name": "San Jose Gulf", "lat": -42.315, "lon": -64.323, "geomorphotype": "LSE" }, "geometry": { "type": "Point", "coordinates": [ -64.323, -42.315 ] } },
{ "type": "Feature", "properties": { "name": "San Miguel Bay", "lat": 13.829, "lon": 123.185, "geomorphotype": "Rocky Bay" }, "geometry": { "type": "Point", "coordinates": [ 123.185, 13.829 ] } },
{ "type": "Feature", "properties": { "name": "San Pedro Bay", "lat": 33.708, "lon": -118.148, "geomorphotype": "Sandy Bay" }, "geometry": { "type": "Point", "coordinates": [ -118.148, 33.708 ] } },
{ "type": "Feature", "properties": { "name": "Sandakan Harbour", "lat": 5.815, "lon": 118.123, "geomorphotype": "Barrier Estuary" }, "geometry": { "type": "Point", "coordinates": [ 118.123, 5.815 ] } },
{ "type": "Feature", "properties": { "name": "Sangarungo Harbour", "lat": -9.0, "lon": 39.501, "geomorphotype": "LSE" }, "geometry": { "type": "Point", "coordinates": [ 39.501, -9.0 ] } },
{ "type": "Feature", "properties": { "name": "Santa Monica Bay", "lat": 33.922, "lon": -118.573, "geomorphotype": "Sandy Bay" }, "geometry": { "type": "Point", "coordinates": [ -118.573, 33.922 ] } },
{ "type": "Feature", "properties": { "name": "Saragani Bay", "lat": 5.971, "lon": 125.203, "geomorphotype": "Rocky Bay" }, "geometry": { "type": "Point", "coordinates": [ 125.203, 5.971 ] } },
{ "type": "Feature", "properties": { "name": "Sasebo Bay", "lat": 33.107, "lon": 129.717, "geomorphotype": "Barrier Estuary" }, "geometry": { "type": "Point", "coordinates": [ 129.717, 33.107 ] } },
{ "type": "Feature", "properties": { "name": "Sebangan Bay", "lat": -3.301, "lon": 113.508, "geomorphotype": "Sandy Bay" }, "geometry": { "type": "Point", "coordinates": [ 113.508, -3.301 ] } },
{ "type": "Feature", "properties": { "name": "Sechura Bay", "lat": -5.625, "lon": -81.0, "geomorphotype": "Sandy Bay" }, "geometry": { "type": "Point", "coordinates": [ -81.0, -5.625 ] } },
{ "type": "Feature", "properties": { "name": "Seine Estuary", "lat": 49.442, "lon": 0.163, "geomorphotype": "Funnelled" }, "geometry": { "type": "Point", "coordinates": [ 0.163, 49.442 ] } },
{ "type": "Feature", "properties": { "name": "Semangka Bay", "lat": -5.634, "lon": 104.682, "geomorphotype": "Rocky Bay" }, "geometry": { "type": "Point", "coordinates": [ 104.682, -5.634 ] } },
{ "type": "Feature", "properties": { "name": "Shark Bay", "lat": -25.973, "lon": 114.004, "geomorphotype": "Sandy Bay" }, "geometry": { "type": "Point", "coordinates": [ 114.004, -25.973 ] } },
{ "type": "Feature", "properties": { "name": "Shibushi Wan", "lat": 31.402, "lon": 131.127, "geomorphotype": "Rocky Bay" }, "geometry": { "type": "Point", "coordinates": [ 131.127, 31.402 ] } },
{ "type": "Feature", "properties": { "name": "Shoal Gulf", "lat": 36.516, "lon": 126.433, "geomorphotype": "Rocky Bay" }, "geometry": { "type": "Point", "coordinates": [ 126.433, 36.516 ] } },
{ "type": "Feature", "properties": { "name": "Shoalwater Bay", "lat": -22.439, "lon": 150.447, "geomorphotype": "Funnelled" }, "geometry": { "type": "Point", "coordinates": [ 150.447, -22.439 ] } },
{ "type": "Feature", "properties": { "name": "Siyu Channel", "lat": -2.076, "lon": 40.99, "geomorphotype": "Sandy Bay" }, "geometry": { "type": "Point", "coordinates": [ 40.99, -2.076 ] } },
{ "type": "Feature", "properties": { "name": "Sogod Bay", "lat": 10.178, "lon": 125.051, "geomorphotype": "Rocky Bay" }, "geometry": { "type": "Point", "coordinates": [ 125.051, 10.178 ] } },
{ "type": "Feature", "properties": { "name": "Spencer Gulf", "lat": -34.319, "lon": 137.018, "geomorphotype": "Sandy Bay" }, "geometry": { "type": "Point", "coordinates": [ 137.018, -34.319 ] } },
{ "type": "Feature", "properties": { "name": "Staring Bay", "lat": -4.098, "lon": 122.721, "geomorphotype": "Rocky Bay" }, "geometry": { "type": "Point", "coordinates": [ 122.721, -4.098 ] } },
{ "type": "Feature", "properties": { "name": "Strangord Lough", "lat": 54.476, "lon": -5.605, "geomorphotype": "LSE" }, "geometry": { "type": "Point", "coordinates": [ -5.605, 54.476 ] } },
{ "type": "Feature", "properties": { "name": "Strymonian Gulf", "lat": 40.681, "lon": 23.845, "geomorphotype": "Rocky Bay" }, "geometry": { "type": "Point", "coordinates": [ 23.845, 40.681 ] } },
{ "type": "Feature", "properties": { "name": "Sukadana Bay", "lat": -1.508, "lon": 109.996, "geomorphotype": "Sandy Bay" }, "geometry": { "type": "Point", "coordinates": [ 109.996, -1.508 ] } },
{ "type": "Feature", "properties": { "name": "Suruga Bay", "lat": 34.935, "lon": 138.651, "geomorphotype": "Rocky Bay" }, "geometry": { "type": "Point", "coordinates": [ 138.651, 34.935 ] } },
{ "type": "Feature", "properties": { "name": "Sydney Harbour", "lat": -33.828, "lon": 151.28, "geomorphotype": "LSE" }, "geometry": { "type": "Point", "coordinates": [ 151.28, -33.828 ] } },
{ "type": "Feature", "properties": { "name": "Taedong-gang River Estuary", "lat": 38.688, "lon": 125.223, "geomorphotype": "Funnelled" }, "geometry": { "type": "Point", "coordinates": [ 125.223, 38.688 ] } },
{ "type": "Feature", "properties": { "name": "Takou Bay", "lat": -35.091, "lon": 173.955, "geomorphotype": "Rocky Bay" }, "geometry": { "type": "Point", "coordinates": [ 173.955, -35.091 ] } },
{ "type": "Feature", "properties": { "name": "Tamiahua Lagoon", "lat": 21.58, "lon": -97.547, "geomorphotype": "Barrier Estuary" }, "geometry": { "type": "Point", "coordinates": [ -97.547, 21.58 ] } },
{ "type": "Feature", "properties": { "name": "Tampa Bay", "lat": 27.777, "lon": -82.559, "geomorphotype": "Barrier Estuary" }, "geometry": { "type": "Point", "coordinates": [ -82.559, 27.777 ] } },
{ "type": "Feature", "properties": { "name": "Tasman Bay", "lat": -41.15, "lon": 173.175, "geomorphotype": "Sandy Bay" }, "geometry": { "type": "Point", "coordinates": [ 173.175, -41.15 ] } },
{ "type": "Feature", "properties": { "name": "Tauranga Harbour", "lat": -37.594, "lon": 176.001, "geomorphotype": "Barrier Estuary" }, "geometry": { "type": "Point", "coordinates": [ 176.001, -37.594 ] } },
{ "type": "Feature", "properties": { "name": "Teluk Klabat", "lat": -1.587, "lon": 105.671, "geomorphotype": "LSE" }, "geometry": { "type": "Point", "coordinates": [ 105.671, -1.587 ] } },
{ "type": "Feature", "properties": { "name": "Teluk Saleh", "lat": -8.524, "lon": 117.893, "geomorphotype": "LSE" }, "geometry": { "type": "Point", "coordinates": [ 117.893, -8.524 ] } },
{ "type": "Feature", "properties": { "name": "Tewaenae Bay", "lat": -46.231, "lon": 167.533, "geomorphotype": "Sandy Bay" }, "geometry": { "type": "Point", "coordinates": [ 167.533, -46.231 ] } },
{ "type": "Feature", "properties": { "name": "The Wash", "lat": 52.944, "lon": 0.327, "geomorphotype": "Rocky Bay" }, "geometry": { "type": "Point", "coordinates": [ 0.327, 52.944 ] } },
{ "type": "Feature", "properties": { "name": "Togunyan Wan", "lat": 34.623, "lon": 127.109, "geomorphotype": "Rocky Bay" }, "geometry": { "type": "Point", "coordinates": [ 127.109, 34.623 ] } },
{ "type": "Feature", "properties": { "name": "Tor Bay", "lat": 50.424, "lon": -3.511, "geomorphotype": "Rocky Bay" }, "geometry": { "type": "Point", "coordinates": [ -3.511, 50.424 ] } },
{ "type": "Feature", "properties": { "name": "Toroneos Bay", "lat": 40.03, "lon": 23.718, "geomorphotype": "Rocky Bay" }, "geometry": { "type": "Point", "coordinates": [ 23.718, 40.03 ] } },
{ "type": "Feature", "properties": { "name": "Toyama Bay", "lat": 37.011, "lon": 137.189, "geomorphotype": "Sandy Bay" }, "geometry": { "type": "Point", "coordinates": [ 137.189, 37.011 ] } },
{ "type": "Feature", "properties": { "name": "Términos Lagoon", "lat": 18.611, "lon": -91.588, "geomorphotype": "Barrier Estuary" }, "geometry": { "type": "Point", "coordinates": [ -91.588, 18.611 ] } },
{ "type": "Feature", "properties": { "name": "Ussuri Bay", "lat": 43.1, "lon": 132.167, "geomorphotype": "Rocky Bay" }, "geometry": { "type": "Point", "coordinates": [ 132.167, 43.1 ] } },
{ "type": "Feature", "properties": { "name": "Vinh Van Phong", "lat": 12.648, "lon": 109.264, "geomorphotype": "Barrier Estuary" }, "geometry": { "type": "Point", "coordinates": [ 109.264, 12.648 ] } },
{ "type": "Feature", "properties": { "name": "Waikare Inlet", "lat": -35.313, "lon": 174.131, "geomorphotype": "LSE" }, "geometry": { "type": "Point", "coordinates": [ 174.131, -35.313 ] } },
{ "type": "Feature", "properties": { "name": "Wainui Bay", "lat": -35.008, "lon": 173.868, "geomorphotype": "Rocky Bay" }, "geometry": { "type": "Point", "coordinates": [ 173.868, -35.008 ] } },
{ "type": "Feature", "properties": { "name": "Waitamata Harbour", "lat": -36.833, "lon": 174.691, "geomorphotype": "LSE" }, "geometry": { "type": "Point", "coordinates": [ 174.691, -36.833 ] } },
{ "type": "Feature", "properties": { "name": "Wakasa Bay", "lat": 35.716, "lon": 135.626, "geomorphotype": "Rocky Bay" }, "geometry": { "type": "Point", "coordinates": [ 135.626, 35.716 ] } },
{ "type": "Feature", "properties": { "name": "Waworada Bay", "lat": -8.743, "lon": 118.923, "geomorphotype": "Rocky Bay" }, "geometry": { "type": "Point", "coordinates": [ 118.923, -8.743 ] } },
{ "type": "Feature", "properties": { "name": "Wellington Harbour", "lat": -41.255, "lon": 174.862, "geomorphotype": "LSE" }, "geometry": { "type": "Point", "coordinates": [ 174.862, -41.255 ] } },
{ "type": "Feature", "properties": { "name": "Western Port Bay", "lat": -38.39, "lon": 145.325, "geomorphotype": "Barrier Estuary" }, "geometry": { "type": "Point", "coordinates": [ 145.325, -38.39 ] } },
{ "type": "Feature", "properties": { "name": "Whanganui Inlet", "lat": -40.597, "lon": 172.562, "geomorphotype": "LSE" }, "geometry": { "type": "Point", "coordinates": [ 172.562, -40.597 ] } },
{ "type": "Feature", "properties": { "name": "Whangaroa Harbour", "lat": -35.03, "lon": 173.75, "geomorphotype": "LSE" }, "geometry": { "type": "Point", "coordinates": [ 173.75, -35.03 ] } },
{ "type": "Feature", "properties": { "name": "Willapa Bay", "lat": 46.569, "lon": -123.983, "geomorphotype": "Barrier Estuary" }, "geometry": { "type": "Point", "coordinates": [ -123.983, 46.569 ] } },
{ "type": "Feature", "properties": { "name": "Wouri River Estuary", "lat": 3.938, "lon": 9.569, "geomorphotype": "Barrier Estuary" }, "geometry": { "type": "Point", "coordinates": [ 9.569, 3.938 ] } },
{ "type": "Feature", "properties": { "name": "Xinghua Bay", "lat": 25.375, "lon": 119.36, "geomorphotype": "LSE" }, "geometry": { "type": "Point", "coordinates": [ 119.36, 25.375 ] } },
{ "type": "Feature", "properties": { "name": "Zhao'an Bay", "lat": 23.679, "lon": 117.299, "geomorphotype": "Rocky Bay" }, "geometry": { "type": "Point", "coordinates": [ 117.299, 23.679 ] } },
{ "type": "Feature", "properties": { "name": "Zhujiang River Estuary", "lat": 22.496, "lon": 113.688, "geomorphotype": "Rocky Bay" }, "geometry": { "type": "Point", "coordinates": [ 113.688, 22.496 ] } }
]
}
